$GPGGA,153851.983,6235.8779,N,02944.6810,E,1,05,1.6,102.3,M,,,,0000*03
$GPGSA,A,3,05,30,02,06,31,,,,,,,,2.9,1.6,2.4*38
$GPGSV,3,1,10,05,74,187,51,30,68,251,49,02,47,111,39,04,35,059,15*70
$GPGSV,3,2,10,06,26,233,39,31,26,313,34,01,24,296,00,14,14,260,00*7D
$GPGSV,3,3,10,09,08,173,00,20,07,353,00*7C
$GPRMC,153851.983,A,6235.8779,N,02944.6810,E,0.325276,140.85,270807,,A*49
$GPGGA,153852.983,6235.8778,N,02944.6810,E,1,05,1.6,102.1,M,,,,0000*03
$GPGSA,A,3,05,30,02,06,31,,,,,,,,2.9,1.6,2.4*38
$GPGSV,3,1,10,05,74,187,50,30,68,251,47,02,47,111,39,04,35,059,15*7F
$GPGSV,3,2,10,06,26,233,38,31,26,313,30,01,24,296,00,14,14,260,00*78
$GPGSV,3,3,10,09,08,173,00,20,07,353,00*7C
$GPRMC,153852.983,A,6235.8778,N,02944.6810,E,0.373076,189.45,270807,,A*43
$GPGGA,153853.983,6235.8776,N,02944.6809,E,1,05,1.6,102.0,M,,,,0000*05
$GPGSA,A,3,05,30,02,06,31,,,,,,,,2.9,1.6,2.4*38
$GPGSV,3,1,10,05,74,187,53,30,68,251,48,02,47,111,40,04,35,059,15*7D
$GPGSV,3,2,10,06,26,233,40,31,26,313,36,01,24,296,00,14,14,260,00*71
$GPGSV,3,3,10,09,08,173,00,20,07,353,00*7C
$GPRMC,153853.983,A,6235.8776,N,02944.6809,E,0.617557,170.72,270807,,A*47
$GPGGA,153854.983,6235.8776,N,02944.6810,E,1,05,1.6,101.9,M,,,,0000*00
$GPGSA,A,3,05,30,02,06,31,,,,,,,,2.9,1.6,2.4*38
$GPGSV,3,1,10,05,74,187,52,30,68,251,49,02,47,111,38,04,35,059,15*72
$GPGSV,3,2,10,06,26,233,41,31,26,313,33,01,24,296,00,14,14,260,00*75
$GPGSV,3,3,10,09,08,173,00,20,07,353,00*7C
$GPRMC,153854.983,A,6235.8776,N,02944.6810,E,0.251786,98.07,270807,,A*75
$GPGGA,153855.983,6235.8775,N,02944.6812,E,1,05,1.6,101.9,M,,,,0000*00
$GPGSA,A,3,05,30,02,06,31,,,,,,,,2.9,1.6,2.4*38
$GPGSV,3,1,10,05,74,187,52,30,68,251,49,02,47,111,38,04,35,059,15*72
$GPGSV,3,2,10,06,26,233,39,31,26,313,35,01,24,296,00,14,14,260,00*7C
$GPGSV,3,3,10,09,08,173,00,20,07,353,00*7C
$GPRMC,153855.983,A,6235.8775,N,02944.6812,E,0.029284,303.74,270807,,A*4A
$GPGGA,153856.983,6235.8775,N,02944.6812,E,1,05,1.6,101.9,M,,,,0000*03
$GPGSA,A,3,05,30,02,06,31,,,,,,,,2.9,1.6,2.4*38
$GPGSV,3,1,10,05,74,187,53,30,68,251,49,02,47,111,41,04,35,059,15*7D
$GPGSV,3,2,10,06,26,233,39,31,26,313,36,01,24,296,00,14,14,260,00*7F
$GPGSV,3,3,10,09,08,173,00,20,07,353,00*7C
$GPRMC,153856.983,A,6235.8775,N,02944.6812,E,0.183689,16.94,270807,,A*78
$GPGGA,153857.983,6235.8776,N,02944.6812,E,1,05,1.6,101.8,M,,,,0000*00
$GPGSA,A,3,05,30,02,06,31,,,,,,,,2.9,1.6,2.4*38
$GPGSV,3,1,10,05,74,187,51,30,68,251,49,02,47,111,41,04,35,059,15*7F
$GPGSV,3,2,10,06,26,233,40,31,26,313,32,01,24,296,00,14,14,260,00*75
$GPGSV,3,3,10,09,08,173,00,20,07,353,00*7C
$GPRMC,153857.983,A,6235.8776,N,02944.6812,E,0.106831,4.57,270807,,A*46
$GPGGA,153858.983,6235.8777,N,02944.6813,E,1,05,1.6,101.7,M,,,,0000*00
$GPGSA,A,3,05,30,02,06,31,,,,,,,,2.9,1.6,2.4*38
$GPGSV,3,1,10,05,74,187,51,30,68,251,49,02,47,111,42,04,35,059,23*79
$GPGSV,3,2,10,06,26,233,40,31,26,313,31,01,24,296,00,14,14,260,00*76
$GPGSV,3,3,10,09,08,173,00,20,07,353,00*7C
$GPRMC,153858.983,A,6235.8777,N,02944.6813,E,0.575896,35.32,270807,,A*75
$GPGGA,153859.983,6235.8778,N,02944.6814,E,1,05,1.6,101.7,M,,,,0000*09
$GPGSA,A,3,05,30,02,06,31,,,,,,,,2.9,1.6,2.4*38
$GPGSV,3,1,10,05,74,187,54,30,68,251,49,02,47,111,41,04,35,059,23*7F
$GPGSV,3,2,10,06,26,233,40,31,26,313,36,01,24,296,00,14,14,260,00*71
$GPGSV,3,3,10,09,08,173,00,20,07,353,00*7C
$GPRMC,153859.983,A,6235.8778,N,02944.6814,E,0.417125,20.72,270807,,A*78
$GPGGA,153900.983,6235.8780,N,02944.6814,E,1,05,1.6,101.8,M,,,,0000*0C
$GPGSA,A,3,05,30,02,06,31,,,,,,,,2.9,1.6,2.4*38
$GPGSV,3,1,10,05,74,187,52,30,68,251,49,02,47,111,41,04,35,059,23*79
$GPGSV,3,2,10,06,26,233,43,31,26,313,35,01,24,296,00,14,14,260,00*71
$GPGSV,3,3,10,09,08,173,00,20,07,353,00*7C
$GPRMC,153900.983,A,6235.8780,N,02944.6814,E,0.263695,328.59,270807,,A*49
$GPGGA,153901.983,6235.8780,N,02944.6812,E,1,05,1.6,102.0,M,,,,0000*00
$GPGSA,A,3,05,30,02,06,31,,,,,,,,2.9,1.6,2.4*38
$GPGSV,3,1,10,05,74,187,53,30,68,251,49,02,47,111,44,04,35,059,23*7D
$GPGSV,3,2,10,06,26,233,41,31,26,313,33,01,24,296,00,14,14,260,00*75
$GPGSV,3,3,10,09,08,173,00,20,07,353,00*7C
$GPRMC,153901.983,A,6235.8780,N,02944.6812,E,0.408292,204.93,270807,,A*4F
$GPGGA,153902.983,6235.8782,N,02944.6813,E,1,06,1.2,102.0,M,,,,0000*07
$GPGSA,A,3,05,30,02,04,06,31,,,,,,,2.6,1.2,2.2*31
$GPGSV,3,1,10,05,74,187,52,30,68,251,48,02,47,111,41,04,35,059,39*73
$GPGSV,3,2,10,06,26,233,39,31,26,313,31,01,24,296,27,14,14,260,00*7D
$GPGSV,3,3,10,09,08,173,00,20,07,353,00*7C
$GPRMC,153902.983,A,6235.8782,N,02944.6813,E,1.928315,17.03,270807,,A*76
$GPGGA,153903.992,6235.8792,N,02944.6816,E,1,06,1.2,102.0,M,,,,0000*02
$GPGSA,A,3,05,30,02,04,06,31,,,,,,,2.6,1.2,2.2*31
$GPGSV,3,1,10,05,74,187,49,30,68,251,47,02,47,111,44,04,35,059,46*7B
$GPGSV,3,2,10,06,26,233,40,31,26,313,33,01,24,296,00,14,14,260,00*74
$GPGSV,3,3,10,09,08,173,00,20,07,353,00*7C
$GPRMC,153903.992,A,6235.8792,N,02944.6816,E,5.210156,8.22,270807,,A*4F
$GPGGA,153904.983,6235.8808,N,02944.6820,E,1,06,1.2,102.1,M,,,,0000*0D
$GPGSA,A,3,05,30,02,04,06,31,,,,,,,2.6,1.2,2.2*31
$GPGSV,3,1,10,05,74,187,51,30,68,251,47,02,47,111,45,04,35,059,45*70
$GPGSV,3,2,10,06,26,233,41,31,26,313,33,01,24,296,00,14,14,260,00*75
$GPGSV,3,3,10,09,08,173,00,20,07,353,00*7C
$GPRMC,153904.983,A,6235.8808,N,02944.6820,E,7.184195,5.99,270807,,A*4F
$GPGGA,153905.992,6235.8831,N,02944.6827,E,1,06,1.6,102.1,M,,,,0000*05
$GPGSA,A,3,05,30,02,04,06,09,,,,,,,2.5,1.6,1.9*35
$GPGSV,3,1,10,05,74,187,54,30,68,251,48,02,47,111,48,04,35,059,47*75
$GPGSV,3,2,10,06,26,233,43,31,26,313,33,01,24,296,00,14,14,260,00*77
$GPGSV,3,3,10,09,08,173,32,20,07,353,00*7D
$GPRMC,153905.992,A,6235.8831,N,02944.6827,E,9.574484,10.67,270807,,A*76
$GPGGA,153906.983,6235.8857,N,02944.6843,E,1,05,2.2,102.1,M,,,,0000*00
$GPGSA,A,3,05,30,02,04,06,,,,,,,,3.2,2.2,2.3*34
$GPGSV,3,1,10,05,74,187,52,30,68,251,49,02,47,111,48,04,35,059,43*76
$GPGSV,3,2,10,06,26,233,38,31,26,313,33,01,24,296,00,14,14,260,00*7B
$GPGSV,3,3,10,09,08,173,32,20,07,353,00*7D
$GPRMC,153906.983,A,6235.8857,N,02944.6843,E,10.471436,22.17,270807,,A*44
$GPGGA,153907.983,6235.8886,N,02944.6870,E,1,05,2.2,102.0,M,,,,0000*0C
$GPGSA,A,3,05,30,02,04,06,,,,,,,,3.2,2.2,2.3*34
$GPGSV,3,1,10,05,74,187,54,30,68,251,49,02,47,111,48,04,35,059,42*71
$GPGSV,3,2,10,06,26,233,37,31,26,313,33,01,24,296,00,14,14,260,00*74
$GPGSV,3,3,10,09,08,173,32,20,07,353,00*7D
$GPRMC,153907.983,A,6235.8886,N,02944.6870,E,12.570539,25.72,270807,,A*41
$GPGGA,153908.983,6235.8921,N,02944.6907,E,1,05,2.2,101.8,M,,,,0000*05
$GPGSA,A,3,05,30,02,04,06,,,,,,,,3.2,2.2,2.3*34
$GPGSV,3,1,10,05,74,187,52,30,68,251,50,02,47,111,49,04,35,059,38*73
$GPGSV,3,2,10,06,26,233,36,31,26,313,33,01,24,296,00,14,14,260,00*75
$GPGSV,3,3,10,09,08,173,32,20,07,353,24*7B
$GPRMC,153908.983,A,6235.8921,N,02944.6907,E,16.045403,25.45,270807,,A*48
$GPGGA,153909.983,6235.8962,N,02944.6949,E,1,06,1.4,101.8,M,,,,0000*0F
$GPGSA,A,3,05,30,02,04,06,01,,,,,,,2.6,1.4,2.2*34
$GPGSV,3,1,10,05,74,187,49,30,68,251,48,02,47,111,49,04,35,059,42*7D
$GPGSV,3,2,10,06,26,233,34,31,26,313,25,01,24,296,31,14,14,260,00*72
$GPGSV,3,3,10,09,08,173,32,20,07,353,24*7B
$GPRMC,153909.983,A,6235.8962,N,02944.6949,E,16.499148,24.52,270807,,A*4C
$GPGGA,153910.992,6235.8999,N,02944.6986,E,1,05,2.2,101.6,M,,,,0000*08
$GPGSA,A,3,05,30,02,04,06,,,,,,,,3.2,2.2,2.3*34
$GPGSV,3,1,10,05,74,187,48,30,68,251,48,02,47,111,50,04,35,059,42*74
$GPGSV,3,2,10,06,26,233,39,31,26,313,25,01,24,296,31,14,14,260,00*7F
$GPGSV,3,3,10,09,08,173,32,20,07,353,24*7B
$GPRMC,153910.992,A,6235.8999,N,02944.6986,E,12.698317,24.49,270807,,A*46
$GPGGA,153911.983,6235.9031,N,02944.7016,E,1,06,1.4,101.3,M,,,,0000*01
$GPGSA,A,3,05,30,02,04,06,01,,,,,,,2.6,1.4,2.2*34
$GPGSV,3,1,10,05,74,187,52,30,68,251,50,02,47,111,49,04,35,059,42*7E
$GPGSV,3,2,10,06,26,233,39,31,26,313,25,01,24,296,38,14,14,260,00*76
$GPGSV,3,3,10,09,08,173,32,20,07,353,24*7B
$GPRMC,153911.983,A,6235.9031,N,02944.7016,E,12.928926,22.33,270807,,A*4B
$GPGGA,153912.984,6235.9066,N,02944.7048,E,1,06,1.4,101.1,M,,,,0000*0E
$GPGSA,A,3,05,30,02,04,06,01,,,,,,,2.6,1.4,2.2*34
$GPGSV,3,1,10,05,74,187,51,30,68,251,49,02,47,111,47,04,35,059,39*77
$GPGSV,3,2,10,06,26,233,37,31,26,313,25,01,24,296,35,14,14,260,00*75
$GPGSV,3,3,10,09,08,173,32,20,07,353,24*7B
$GPRMC,153912.984,A,6235.9066,N,02944.7048,E,15.157348,22.40,270807,,A*47
$GPGGA,153913.992,6235.9108,N,02944.7085,E,1,06,1.4,100.8,M,,,,0000*08
$GPGSA,A,3,05,30,02,04,06,01,,,,,,,2.6,1.4,2.2*34
$GPGSV,3,1,10,05,74,187,49,30,68,251,50,02,47,111,50,04,35,059,40*7E
$GPGSV,3,2,10,06,26,233,39,31,26,313,25,01,24,296,36,14,14,260,00*78
$GPGSV,3,3,10,09,08,173,32,20,07,353,24*7B
$GPRMC,153913.992,A,6235.9108,N,02944.7085,E,17.565049,22.68,270807,,A*46
$GPGGA,153914.984,6235.9150,N,02944.7124,E,1,05,2.2,100.5,M,,,,0000*04
$GPGSA,A,3,05,30,02,04,06,,,,,,,,3.2,2.2,2.3*34
$GPGSV,3,1,10,05,74,187,52,30,68,251,49,02,47,111,50,04,35,059,29*73
$GPGSV,3,2,10,06,26,233,40,31,26,313,25,01,24,296,29,14,14,260,00*78
$GPGSV,3,3,10,09,08,173,32,20,07,353,24*7B
$GPRMC,153914.984,A,6235.9150,N,02944.7124,E,16.378444,26.01,270807,,A*48
$GPGGA,153915.984,6235.9196,N,02944.7167,E,1,05,2.2,100.3,M,,,,0000*0E
$GPGSA,A,3,05,30,02,04,06,,,,,,,,3.2,2.2,2.3*34
$GPGSV,3,1,10,05,74,187,51,30,68,251,49,02,47,111,40,04,35,059,39*70
$GPGSV,3,2,10,06,26,233,34,31,26,313,25,01,24,296,00,14,14,260,00*70
$GPGSV,3,3,10,09,08,173,32,20,07,353,24*7B
$GPRMC,153915.984,A,6235.9196,N,02944.7167,E,19.846341,22.95,270807,,A*46
$GPGGA,153916.984,6235.9249,N,02944.7215,E,1,06,2.0,100.0,M,,,,0000*08
$GPGSA,A,3,05,30,02,04,06,14,,,,,,,2.8,2.0,1.9*31
$GPGSV,3,1,10,05,74,187,52,30,68,251,51,02,47,111,48,04,35,059,41*7D
$GPGSV,3,2,10,06,26,233,32,31,26,313,25,01,24,296,00,14,14,260,29*7D
$GPGSV,3,3,10,09,08,173,32,20,07,353,24*7B
$GPRMC,153916.984,A,6235.9249,N,02944.7215,E,21.247531,23.65,270807,,A*4D
$GPGGA,153917.992,6235.9303,N,02944.7267,E,1,05,3.2,99.7,M,,,,0000*32
$GPGSA,A,3,05,30,02,04,31,,,,,,,,6.7,3.2,5.7*32
$GPGSV,3,1,10,05,74,187,48,30,68,251,47,02,47,111,48,04,35,059,39*7E
$GPGSV,3,2,10,06,26,233,32,31,26,313,37,01,24,296,00,14,14,260,29*7E
$GPGSV,3,3,10,09,08,173,32,20,07,353,24*7B
$GPRMC,153917.992,A,6235.9303,N,02944.7267,E,20.982789,23.67,270807,,A*41
$GPGGA,153918.984,6235.9355,N,02944.7317,E,1,05,3.2,99.7,M,,,,0000*3F
$GPGSA,A,3,05,30,02,04,31,,,,,,,,6.7,3.2,5.7*32
$GPGSV,3,1,10,05,74,187,51,30,68,251,50,02,47,111,50,04,35,059,41*76
$GPGSV,3,2,10,06,26,233,32,31,26,313,37,01,24,296,00,14,14,260,29*7E
$GPGSV,3,3,10,09,08,173,32,20,07,353,24*7B
$GPRMC,153918.984,A,6235.9355,N,02944.7317,E,20.681335,23.17,270807,,A*44
$GPGGA,153919.984,6235.9408,N,02944.7366,E,1,06,1.4,99.8,M,,,,0000*3F
$GPGSA,A,3,05,30,02,04,06,01,,,,,,,2.7,1.4,2.2*35
$GPGSV,3,1,10,05,74,187,50,30,68,251,49,02,47,111,48,04,35,059,39*79
$GPGSV,3,2,10,06,26,233,37,31,26,313,37,01,24,296,34,14,14,260,29*7C
$GPGSV,3,3,10,09,08,173,32,20,07,353,24*7B
$GPRMC,153919.984,A,6235.9408,N,02944.7366,E,20.388397,23.38,270807,,A*45
$GPGGA,153920.992,6235.9459,N,02944.7415,E,1,06,1.4,100.2,M,,,,0000*0E
$GPGSA,A,3,05,30,02,04,06,20,,,,,,,2.6,1.4,2.1*34
$GPGSV,3,1,10,05,74,187,51,30,68,251,48,02,47,111,50,04,35,059,44*7A
$GPGSV,3,2,10,06,26,233,37,31,26,313,37,01,24,296,34,14,14,260,29*7C
$GPGSV,3,3,10,09,08,173,32,20,07,353,36*78
$GPRMC,153920.992,A,6235.9459,N,02944.7415,E,19.706756,23.57,270807,,A*47
$GPGGA,153921.984,6235.9510,N,02944.7463,E,1,05,3.4,100.9,M,,,,0000*0F
$GPGSA,A,3,05,30,02,04,20,,,,,,,,6.2,3.4,5.2*34
$GPGSV,3,1,10,05,74,187,51,30,68,251,48,02,47,111,48,04,35,059,36*76
$GPGSV,3,2,10,06,26,233,25,31,26,313,37,01,24,296,26,14,14,260,29*7C
$GPGSV,3,3,10,09,08,173,32,20,07,353,30*7E
$GPRMC,153921.984,A,6235.9510,N,02944.7463,E,20.540825,22.56,270807,,A*4D
$GPGGA,153922.992,6235.9560,N,02944.7512,E,1,06,1.2,101.1,M,,,,0000*05
$GPGSA,A,3,05,30,02,04,06,31,,,,,,,2.6,1.2,2.2*31
$GPGSV,3,1,10,05,74,187,49,30,68,251,47,02,47,111,49,04,35,059,43*73
$GPGSV,3,2,10,06,26,233,36,31,26,313,30,01,24,296,00,14,14,260,29*7D
$GPGSV,3,3,10,09,08,173,32,20,07,353,30*7E
$GPRMC,153922.992,A,6235.9560,N,02944.7512,E,18.817832,23.91,270807,,A*41
$GPGGA,153923.984,6235.9606,N,02944.7558,E,1,06,1.2,101.1,M,,,,0000*0E
$GPGSA,A,3,05,30,02,04,06,31,,,,,,,2.6,1.2,2.2*31
$GPGSV,3,1,10,05,74,187,50,30,68,251,48,02,47,111,47,04,35,059,38*76
$GPGSV,3,2,10,06,26,233,38,31,26,313,33,01,24,296,00,14,14,260,29*70
$GPGSV,3,3,10,09,08,173,32,20,07,353,30*7E
$GPRMC,153923.984,A,6235.9606,N,02944.7558,E,18.476429,24.74,270807,,A*4B
$GPGGA,153924.984,6235.9653,N,02944.7605,E,1,05,2.2,101.2,M,,,,0000*01
$GPGSA,A,3,05,30,02,04,06,,,,,,,,3.2,2.2,2.3*34
$GPGSV,3,1,10,05,74,187,51,30,68,251,47,02,47,111,47,04,35,059,36*76
$GPGSV,3,2,10,06,26,233,39,31,26,313,33,01,24,296,00,14,14,260,29*71
$GPGSV,3,3,10,09,08,173,32,20,07,353,30*7E
$GPRMC,153924.984,A,6235.9653,N,02944.7605,E,19.035955,23.53,270807,,A*41
$GPGGA,153925.984,6235.9697,N,02944.7652,E,1,06,1.4,101.3,M,,,,0000*0D
$GPGSA,A,3,05,30,02,04,06,01,,,,,,,2.7,1.4,2.2*35
$GPGSV,3,1,10,05,74,187,51,30,68,251,50,02,47,111,43,04,35,059,43*76
$GPGSV,3,2,10,06,26,233,36,31,26,313,33,01,24,296,36,14,14,260,29*7B
$GPGSV,3,3,10,09,08,173,32,20,07,353,30*7E
$GPRMC,153925.984,A,6235.9697,N,02944.7652,E,17.062375,27.36,270807,,A*49
$GPGGA,153926.984,6235.9741,N,02944.7697,E,1,05,2.2,101.3,M,,,,0000*0B
$GPGSA,A,3,05,30,02,04,06,,,,,,,,3.2,2.2,2.3*34
$GPGSV,3,1,10,05,74,187,49,30,68,251,49,02,47,111,49,04,35,059,38*71
$GPGSV,3,2,10,06,26,233,35,31,26,313,33,01,24,296,36,14,14,260,24*75
$GPGSV,3,3,10,09,08,173,32,20,07,353,30*7E
$GPRMC,153926.984,A,6235.9741,N,02944.7697,E,18.153242,22.80,270807,,A*48
$GPGGA,153927.984,6235.9787,N,02944.7739,E,1,04,7.4,101.2,M,,,,0000*06
$GPGSA,A,3,05,30,02,04,,,,,,,,,21.7,7.4,20.3*34
$GPGSV,3,1,10,05,74,187,51,30,68,251,50,02,47,111,43,04,35,059,39*7B
$GPGSV,3,2,10,06,26,233,35,31,26,313,33,01,24,296,36,14,14,260,24*75
$GPGSV,3,3,10,09,08,173,32,20,07,353,30*7E
$GPRMC,153927.984,A,6235.9787,N,02944.7739,E,18.299609,22.72,270807,,A*45
$GPGGA,153928.984,6235.9835,N,02944.7784,E,1,06,2.0,101.1,M,,,,0000*09
$GPGSA,A,3,05,30,02,04,06,14,,,,,,,2.8,2.0,1.9*31
$GPGSV,3,1,10,05,74,187,49,30,68,251,50,02,47,111,46,04,35,059,41*78
$GPGSV,3,2,10,06,26,233,37,31,26,313,27,01,24,296,36,14,14,260,28*7E
$GPGSV,3,3,10,09,08,173,32,20,07,353,30*7E
$GPRMC,153928.984,A,6235.9835,N,02944.7784,E,19.027308,23.19,270807,,A*44
$GPGGA,153929.984,6235.9884,N,02944.7828,E,1,06,1.2,100.8,M,,,,0000*02
$GPGSA,A,3,05,30,02,04,06,31,,,,,,,2.6,1.2,2.2*31
$GPGSV,3,1,10,05,74,187,50,30,68,251,49,02,47,111,44,04,35,059,45*7E
$GPGSV,3,2,10,06,26,233,37,31,26,313,39,01,24,296,36,14,14,260,28*71
$GPGSV,3,3,10,09,08,173,32,20,07,353,00*7D
$GPRMC,153929.984,A,6235.9884,N,02944.7828,E,19.394215,23.41,270807,,A*4D
$GPGGA,153930.984,6235.9932,N,02944.7871,E,1,07,1.2,100.2,M,,,,0000*01
$GPGSA,A,3,05,30,02,04,06,31,01,,,,,,2.6,1.2,2.2*30
$GPGSV,3,1,10,05,74,187,52,30,68,251,48,02,47,111,47,04,35,059,42*79
$GPGSV,3,2,10,06,26,233,36,31,26,313,42,01,24,296,32,14,14,260,28*78
$GPGSV,3,3,10,09,08,173,32,20,07,353,00*7D
$GPRMC,153930.984,A,6235.9932,N,02944.7871,E,18.125559,21.33,270807,,A*44
$GPGGA,153931.992,6235.9979,N,02944.7913,E,1,07,1.2,99.9,M,,,,0000*37
$GPGSA,A,3,05,30,02,04,06,31,01,,,,,,2.6,1.2,2.2*30
$GPGSV,3,1,10,05,74,187,52,30,68,251,46,02,47,111,48,04,35,059,43*79
$GPGSV,3,2,10,06,26,233,40,31,26,313,34,01,24,296,32,14,14,260,28*78
$GPGSV,3,3,10,09,08,173,32,20,07,353,00*7D
$GPRMC,153931.992,A,6235.9979,N,02944.7913,E,18.194607,22.93,270807,,A*43
$GPGGA,153932.984,6236.0025,N,02944.7956,E,1,06,1.2,99.9,M,,,,0000*39
$GPGSA,A,3,05,30,02,04,06,31,,,,,,,2.6,1.2,2.2*31
$GPGSV,3,1,10,05,74,187,50,30,68,251,50,02,47,111,46,04,35,059,40*71
$GPGSV,3,2,10,06,26,233,39,31,26,313,31,01,24,296,32,14,14,260,28*73
$GPGSV,3,3,10,09,08,173,32,20,07,353,00*7D
$GPRMC,153932.984,A,6236.0025,N,02944.7956,E,17.942150,22.98,270807,,A*4E
$GPGGA,153933.984,6236.0072,N,02944.7998,E,1,05,2.2,100.1,M,,,,0000*01
$GPGSA,A,3,05,30,02,04,06,,,,,,,,3.2,2.2,2.3*34
$GPGSV,3,1,10,05,74,187,50,30,68,251,49,02,47,111,45,04,35,059,40*7A
$GPGSV,3,2,10,06,26,233,35,31,26,313,31,01,24,296,00,14,14,260,28*7E
$GPGSV,3,3,10,09,08,173,32,20,07,353,00*7D
$GPRMC,153933.984,A,6236.0072,N,02944.7998,E,18.233451,21.16,270807,,A*4C
$GPGGA,153934.984,6236.0118,N,02944.8038,E,1,05,2.2,100.1,M,,,,0000*07
$GPGSA,A,3,05,30,02,04,06,,,,,,,,3.2,2.2,2.3*34
$GPGSV,3,1,10,05,74,187,51,30,68,251,49,02,47,111,45,04,35,059,40*7B
$GPGSV,3,2,10,06,26,233,32,31,26,313,31,01,24,296,30,14,14,260,28*7A
$GPGSV,3,3,10,09,08,173,32,20,07,353,00*7D
$GPRMC,153934.984,A,6236.0118,N,02944.8038,E,17.254424,22.30,270807,,A*41
$GPGGA,153935.984,6236.0160,N,02944.8079,E,1,06,1.2,100.2,M,,,,0000*0F
$GPGSA,A,3,05,30,02,04,06,31,,,,,,,2.6,1.2,2.2*31
$GPGSV,3,1,10,05,74,187,50,30,68,251,50,02,47,111,47,04,35,059,40*70
$GPGSV,3,2,10,06,26,233,41,31,26,313,34,01,24,296,00,14,14,260,28*78
$GPGSV,3,3,10,09,08,173,32,20,07,353,00*7D
$GPRMC,153935.984,A,6236.0160,N,02944.8079,E,16.225629,23.39,270807,,A*4A
$GPGGA,153936.984,6236.0200,N,02944.8117,E,1,05,2.2,100.4,M,,,,0000*06
$GPGSA,A,3,05,30,02,04,06,,,,,,,,3.3,2.2,2.3*35
$GPGSV,3,1,10,05,74,187,49,30,68,251,49,02,47,111,46,04,35,059,40*71
$GPGSV,3,2,10,06,26,233,38,31,26,313,34,01,24,296,00,14,14,260,28*76
$GPGSV,3,3,10,09,08,173,32,20,07,353,00*7D
$GPRMC,153936.984,A,6236.0200,N,02944.8117,E,15.245882,23.79,270807,,A*4B
$GPGGA,153937.984,6236.0239,N,02944.8156,E,1,06,1.4,100.8,M,,,,0000*02
$GPGSA,A,3,05,30,02,04,06,01,,,,,,,2.7,1.4,2.2*35
$GPGSV,3,1,10,05,74,187,50,30,68,251,50,02,47,111,47,04,35,059,42*72
$GPGSV,3,2,10,06,26,233,36,31,26,313,24,01,24,296,35,14,14,260,28*7F
$GPGSV,3,3,10,09,08,173,32,20,07,353,00*7D
$GPRMC,153937.984,A,6236.0239,N,02944.8156,E,15.648775,22.73,270807,,A*40
$GPGGA,153938.992,6236.0280,N,02944.8195,E,1,05,2.2,101.1,M,,,,0000*09
$GPGSA,A,3,05,30,02,04,06,,,,,,,,3.3,2.2,2.3*35
$GPGSV,3,1,10,05,74,187,48,30,68,251,50,02,47,111,47,04,35,059,43*7A
$GPGSV,3,2,10,06,26,233,37,31,26,313,24,01,24,296,35,14,14,260,28*7E
$GPGSV,3,3,10,09,08,173,32,20,07,353,00*7D
$GPRMC,153938.992,A,6236.0280,N,02944.8195,E,15.777881,23.61,270807,,A*4E
$GPGGA,153939.984,6236.0319,N,02944.8232,E,1,05,2.2,101.4,M,,,,0000*05
$GPGSA,A,3,05,30,02,04,06,,,,,,,,3.3,2.2,2.3*35
$GPGSV,3,1,10,05,74,187,50,30,68,251,49,02,47,111,41,04,35,059,39*70
$GPGSV,3,2,10,06,26,233,36,31,26,313,24,01,24,296,35,14,14,260,28*7F
$GPGSV,3,3,10,09,08,173,32,20,07,353,00*7D
$GPRMC,153939.984,A,6236.0319,N,02944.8232,E,14.947574,21.77,270807,,A*49
$GPGGA,153940.984,6236.0356,N,02944.8266,E,1,05,2.2,101.5,M,,,,0000*00
$GPGSA,A,3,05,30,02,04,06,,,,,,,,3.3,2.2,2.3*35
$GPGSV,3,1,10,05,74,187,49,30,68,251,49,02,47,111,44,04,35,059,41*72
$GPGSV,3,2,10,06,26,233,36,31,26,313,26,01,24,296,35,14,14,260,28*7D
$GPGSV,3,3,10,09,08,173,32,20,07,353,00*7D
$GPRMC,153940.984,A,6236.0356,N,02944.8266,E,14.089134,23.31,270807,,A*46
$GPGGA,153941.984,6236.0392,N,02944.8301,E,1,07,1.2,101.8,M,,,,0000*05
$GPGSA,A,3,05,30,02,04,06,31,01,,,,,,2.6,1.2,2.2*30
$GPGSV,3,1,10,05,74,187,52,30,68,251,50,02,47,111,44,04,35,059,36*70
$GPGSV,3,2,10,06,26,233,37,31,26,313,35,01,24,296,37,14,14,260,28*7C
$GPGSV,3,3,10,09,08,173,32,20,07,353,00*7D
$GPRMC,153941.984,A,6236.0392,N,02944.8301,E,13.701501,23.91,270807,,A*47
$GPGGA,153942.984,6236.0428,N,02944.8336,E,1,06,1.4,102.0,M,,,,0000*08
$GPGSA,A,3,05,30,02,04,06,01,,,,,,,2.7,1.4,2.2*35
$GPGSV,3,1,10,05,74,187,49,30,68,251,50,02,47,111,45,04,35,059,36*7B
$GPGSV,3,2,10,06,26,233,35,31,26,313,24,01,24,296,33,14,14,260,28*7A
$GPGSV,3,3,10,09,08,173,32,20,07,353,00*7D
$GPRMC,153942.984,A,6236.0428,N,02944.8336,E,14.112056,23.75,270807,,A*48
$GPGGA,153943.984,6236.0464,N,02944.8370,E,1,07,1.2,101.7,M,,,,0000*00
$GPGSA,A,3,05,30,02,04,06,31,20,,,,,,2.4,1.2,2.0*33
$GPGSV,3,1,10,05,74,187,51,30,68,251,50,02,47,111,44,04,35,059,42*70
$GPGSV,3,2,10,06,26,233,36,31,26,313,33,01,24,296,33,14,14,260,28*7F
$GPGSV,3,3,10,09,08,173,32,20,07,353,33*7D
$GPRMC,153943.984,A,6236.0464,N,02944.8370,E,13.935212,23.19,270807,,A*41
$GPGGA,153944.984,6236.0498,N,02944.8401,E,1,06,2.6,101.2,M,,,,0000*06
$GPGSA,A,3,05,30,02,04,31,01,,,,,,,5.1,2.6,4.3*36
$GPGSV,3,1,10,05,74,187,51,30,68,251,48,02,47,111,45,04,35,059,42*78
$GPGSV,3,2,10,06,26,233,36,31,26,313,39,01,24,296,33,14,14,260,28*75
$GPGSV,3,3,10,09,08,173,32,20,07,353,33*7D
$GPRMC,153944.984,A,6236.0498,N,02944.8401,E,12.445748,24.52,270807,,A*4D
$GPGGA,153945.984,6236.0528,N,02944.8429,E,1,06,1.4,100.7,M,,,,0000*02
$GPGSA,A,3,05,30,02,04,06,01,,,,,,,2.7,1.4,2.2*35
$GPGSV,3,1,10,05,74,187,50,30,68,251,51,02,47,111,46,04,35,059,39*7E
$GPGSV,3,2,10,06,26,233,37,31,26,313,39,01,24,296,35,14,14,260,28*72
$GPGSV,3,3,10,09,08,173,32,20,07,353,33*7D
$GPRMC,153945.984,A,6236.0528,N,02944.8429,E,11.204421,24.20,270807,,A*45
$GPGGA,153946.984,6236.0558,N,02944.8456,E,1,05,3.4,100.3,M,,,,0000*0B
$GPGSA,A,3,05,30,02,04,31,,,,,,,,6.8,3.4,5.8*34
$GPGSV,3,1,10,05,74,187,50,30,68,251,49,02,47,111,48,04,35,059,42*75
$GPGSV,3,2,10,06,26,233,37,31,26,313,31,01,24,296,35,14,14,260,28*7A
$GPGSV,3,3,10,09,08,173,32,20,07,353,33*7D
$GPRMC,153946.984,A,6236.0558,N,02944.8456,E,11.285056,24.64,270807,,A*44
$GPGGA,153947.984,6236.0587,N,02944.8483,E,1,04,4.6,99.9,M,,,,0000*3F
$GPGSA,A,3,05,30,04,06,,,,,,,,,5.3,4.6,2.3*33
$GPGSV,3,1,10,05,74,187,50,30,68,251,48,02,47,111,48,04,35,059,40*76
$GPGSV,3,2,10,06,26,233,37,31,26,313,25,01,24,296,28,14,14,260,28*73
$GPGSV,3,3,10,09,08,173,32,20,07,353,33*7D
$GPRMC,153947.984,A,6236.0587,N,02944.8483,E,11.912479,24.18,270807,,A*48
$GPGGA,153948.984,6236.0620,N,02944.8511,E,1,06,1.4,99.5,M,,,,0000*3D
$GPGSA,A,3,05,30,02,06,31,20,,,,,,,2.5,1.4,2.0*30
$GPGSV,3,1,10,05,74,187,51,30,68,251,50,02,47,111,47,04,35,059,40*71
$GPGSV,3,2,10,06,26,233,36,31,26,313,34,01,24,296,00,14,14,260,28*78
$GPGSV,3,3,10,09,08,173,32,20,07,353,33*7D
$GPRMC,153948.984,A,6236.0620,N,02944.8511,E,12.586104,23.10,270807,,A*41
$GPGGA,153949.985,6236.0654,N,02944.8541,E,1,06,1.4,99.3,M,,,,0000*3D
$GPGSA,A,3,05,30,02,04,06,20,,,,,,,2.6,1.4,2.1*34
$GPGSV,3,1,10,05,74,187,50,30,68,251,50,02,47,111,46,04,35,059,42*73
$GPGSV,3,2,10,06,26,233,34,31,26,313,34,01,24,296,00,14,14,260,28*7A
$GPGSV,3,3,10,09,08,173,32,20,07,353,33*7D
$GPRMC,153949.985,A,6236.0654,N,02944.8541,E,13.562395,22.85,270807,,A*4B
$GPGGA,153950.984,6236.0692,N,02944.8574,E,1,07,1.2,99.1,M,,,,0000*3D
$GPGSA,A,3,05,30,02,04,06,31,01,,,,,,2.6,1.2,2.2*30
$GPGSV,3,1,10,05,74,187,51,30,68,251,50,02,47,111,45,04,35,059,40*73
$GPGSV,3,2,10,06,26,233,37,31,26,313,36,01,24,296,36,14,14,260,28*7E
$GPGSV,3,3,10,09,08,173,32,20,07,353,33*7D
$GPRMC,153950.984,A,6236.0692,N,02944.8574,E,14.613503,22.99,270807,,A*48
$GPGGA,153951.985,6236.0730,N,02944.8608,E,1,04,26.6,98.9,M,,,,0000*07
$GPGSA,A,3,05,30,02,01,,,,,,,,,34.1,26.6,21.3*03
$GPGSV,3,1,10,05,74,187,49,30,68,251,50,02,47,111,46,04,35,059,40*79
$GPGSV,3,2,10,06,26,233,27,31,26,313,36,01,24,296,34,14,14,260,28*7D
$GPGSV,3,3,10,09,08,173,32,20,07,353,33*7D
$GPRMC,153951.985,A,6236.0730,N,02944.8608,E,14.644878,23.43,270807,,A*4C
$GPGGA,153952.984,6236.0770,N,02944.8639,E,1,06,1.2,99.0,M,,,,0000*38
$GPGSA,A,3,05,30,02,04,06,31,,,,,,,2.6,1.2,2.2*31
$GPGSV,3,1,10,05,74,187,52,30,68,251,49,02,47,111,39,04,35,059,34*70
$GPGSV,3,2,10,06,26,233,35,31,26,313,38,01,24,296,34,14,14,260,28*70
$GPGSV,3,3,10,09,08,173,32,20,07,353,33*7D
$GPRMC,153952.984,A,6236.0770,N,02944.8639,E,13.429049,22.21,270807,,A*49
$GPGGA,153953.984,6236.0804,N,02944.8667,E,1,05,2.2,98.9,M,,,,0000*36
$GPGSA,A,3,05,30,02,04,06,,,,,,,,3.3,2.2,2.3*35
$GPGSV,3,1,10,05,74,187,52,30,68,251,49,02,47,111,40,04,35,059,34*7E
$GPGSV,3,2,10,06,26,233,39,31,26,313,38,01,24,296,34,14,14,260,28*7C
$GPGSV,3,3,10,09,08,173,32,20,07,353,33*7D
$GPRMC,153953.984,A,6236.0804,N,02944.8667,E,13.122614,23.47,270807,,A*4E
$GPGGA,153955.984,6236.0872,N,02944.8729,E,1,08,1.2,98.6,M,,,,0000*3B
$GPGSA,A,3,05,30,02,04,06,31,01,14,,,,,2.2,1.2,1.9*39
$GPGSV,3,1,10,05,74,187,50,30,68,251,49,02,47,111,40,04,35,059,37*7F
$GPGSV,3,2,10,06,26,233,39,31,26,313,31,01,24,296,38,14,14,260,34*74
$GPGSV,3,3,10,09,08,173,32,20,07,353,21*7E
$GPRMC,153955.984,A,6236.0872,N,02944.8729,E,12.919089,23.33,270807,,A*42
$GPGGA,153956.984,6236.0906,N,02944.8762,E,1,08,1.2,98.6,M,,,,0000*35
$GPGSA,A,3,05,30,02,04,06,31,01,14,,,,,2.2,1.2,1.9*39
$GPGSV,3,1,10,05,74,187,50,30,68,251,49,02,47,111,41,04,35,059,38*71
$GPGSV,3,2,10,06,26,233,37,31,26,313,32,01,24,296,35,14,14,260,36*76
$GPGSV,3,3,10,09,08,173,24,20,07,353,23*7B
$GPRMC,153956.984,A,6236.0906,N,02944.8762,E,13.232470,22.66,270807,,A*4C
$GPGGA,153957.984,6236.0941,N,02944.8795,E,1,08,1.2,98.9,M,,,,0000*30
$GPGSA,A,3,05,30,02,04,06,31,01,14,,,,,2.2,1.2,1.9*39
$GPGSV,3,1,10,05,74,187,50,30,68,251,49,02,47,111,40,04,35,059,38*70
$GPGSV,3,2,10,06,26,233,33,31,26,313,30,01,24,296,39,14,14,260,33*79
$GPGSV,3,3,10,09,08,173,00,20,07,353,24*7A
$GPRMC,153957.984,A,6236.0941,N,02944.8795,E,13.184016,22.99,270807,,A*4C
$GPGGA,153958.789,6236.0970,N,02944.8823,E,1,05,2.2,98.9,M,,,,0000*32
$GPGSA,A,3,05,30,02,04,06,,,,,,,,3.3,2.2,2.3*35
$GPGSV,3,1,10,05,74,187,50,30,68,251,50,02,47,111,40,04,35,059,40*77
$GPGSV,3,2,10,06,26,233,36,31,26,313,30,01,24,296,39,14,14,260,33*7C
$GPGSV,3,3,10,09,08,173,00,20,07,353,24*7A
$GPRMC,153958.789,A,6236.0970,N,02944.8823,E,14.420048,22.21,270807,,A*44
$GPGGA,153959.984,6236.1017,N,02944.8865,E,1,05,2.2,98.9,M,,,,0000*3B
$GPGSA,A,3,05,30,02,04,06,,,,,,,,3.3,2.2,2.3*35
$GPGSV,3,1,10,05,74,187,50,30,68,251,48,02,47,111,47,04,35,059,41*78
$GPGSV,3,2,10,06,26,233,37,31,26,313,30,01,24,296,39,14,14,260,33*7D
$GPGSV,3,3,10,09,08,173,00,20,07,353,24*7A
$GPRMC,153959.984,A,6236.1017,N,02944.8865,E,16.169805,21.57,270807,,A*44
$GPGGA,154000.984,6236.1056,N,02944.8903,E,1,06,1.2,98.9,M,,,,0000*3D
$GPGSA,A,3,05,30,02,04,06,31,,,,,,,2.6,1.2,2.2*31
$GPGSV,3,1,10,05,74,187,53,30,68,251,48,02,47,111,45,04,35,059,43*7B
$GPGSV,3,2,10,06,26,233,40,31,26,313,34,01,24,296,39,14,14,260,33*79
$GPGSV,3,3,10,09,08,173,00,20,07,353,24*7A
$GPRMC,154000.984,A,6236.1056,N,02944.8903,E,14.252129,26.67,270807,,A*48
$GPGGA,154001.984,6236.1092,N,02944.8940,E,1,06,1.4,98.8,M,,,,0000*34
$GPGSA,A,3,05,30,02,04,06,01,,,,,,,2.7,1.4,2.2*35
$GPGSV,3,1,10,05,74,187,51,30,68,251,49,02,47,111,47,04,35,059,40*79
$GPGSV,3,2,10,06,26,233,35,31,26,313,34,01,24,296,32,14,14,260,33*70
$GPGSV,3,3,10,09,08,173,00,20,07,353,24*7A
$GPRMC,154001.984,A,6236.1092,N,02944.8940,E,14.402413,22.77,270807,,A*4C
$GPGGA,154002.985,6236.1129,N,02944.8975,E,1,07,1.2,98.5,M,,,,0000*3B
$GPGSA,A,3,05,30,02,04,06,31,01,,,,,,2.6,1.2,2.2*30
$GPGSV,3,1,10,05,74,187,52,30,68,251,50,02,47,111,47,04,35,059,42*70
$GPGSV,3,2,10,06,26,233,35,31,26,313,35,01,24,296,36,14,14,260,24*73
$GPGSV,3,3,10,09,08,173,00,20,07,353,24*7A
$GPRMC,154002.985,A,6236.1129,N,02944.8975,E,14.682494,22.46,270807,,A*4E
$GPGGA,154003.985,6236.1166,N,02944.9008,E,1,04,7.8,98.2,M,,,,0000*3B
$GPGSA,A,3,05,30,02,04,,,,,,,,,22.7,7.8,21.3*3A
$GPGSV,3,1,10,05,74,187,51,30,68,251,50,02,47,111,49,04,35,059,42*7D
$GPGSV,3,2,10,06,26,233,25,31,26,313,23,01,24,296,27,14,14,260,24*75
$GPGSV,3,3,10,09,08,173,00,20,07,353,24*7A
$GPRMC,154003.985,A,6236.1166,N,02944.9008,E,14.081610,22.51,270807,,A*4B
$GPGGA,154004.985,6236.1197,N,02944.9039,E,1,05,1.6,97.7,M,,,,0000*33
$GPGSA,A,3,05,30,02,06,31,,,,,,,,2.9,1.6,2.4*38
$GPGSV,3,1,10,05,74,187,50,30,68,251,50,02,47,111,46,04,35,059,42*73
$GPGSV,3,2,10,06,26,233,33,31,26,313,35,01,24,296,00,14,14,260,24*70
$GPGSV,3,3,10,09,08,173,00,20,07,353,24*7A
$GPRMC,154004.985,A,6236.1197,N,02944.9039,E,11.836711,23.54,270807,,A*45
$GPGGA,154006.985,6236.1259,N,02944.9097,E,1,06,1.2,97.7,M,,,,0000*33
$GPGSA,A,3,05,30,02,04,06,31,,,,,,,2.6,1.2,2.2*31
$GPGSV,3,1,10,05,74,187,51,30,68,251,50,02,47,111,42,04,35,059,37*74
$GPGSV,3,2,10,06,26,233,35,31,26,313,30,01,24,296,00,14,14,260,28*7F
$GPGSV,3,3,10,09,08,173,00,20,07,353,24*7A
$GPRMC,154006.985,A,6236.1259,N,02944.9097,E,11.851824,22.63,270807,,A*4F
$GPGGA,154007.985,6236.1288,N,02944.9127,E,1,07,1.2,99.0,M,,,,0000*3C
$GPGSA,A,3,05,30,02,04,06,31,01,,,,,,2.6,1.2,2.2*30
$GPGSV,3,1,10,05,74,187,51,30,68,251,49,02,47,111,44,04,35,059,34*79
$GPGSV,3,2,10,06,26,233,35,31,26,313,31,01,24,296,35,14,14,260,27*77
$GPGSV,3,3,10,09,08,173,00,20,07,353,24*7A
$GPRMC,154007.985,A,6236.1288,N,02944.9127,E,11.072769,22.51,270807,,A*46
$GPGGA,154008.985,6236.1313,N,02944.9154,E,1,07,1.2,99.7,M,,,,0000*33
$GPGSA,A,3,05,30,02,04,06,31,01,,,,,,2.6,1.2,2.2*30
$GPGSV,3,1,10,05,74,187,50,30,68,251,49,02,47,111,44,04,35,059,37*7B
$GPGSV,3,2,10,06,26,233,36,31,26,313,31,01,24,296,29,14,14,260,24*7A
$GPGSV,3,3,10,09,08,173,00,20,07,353,21*7F
$GPRMC,154008.985,A,6236.1313,N,02944.9154,E,9.128793,23.26,270807,,A*7D
$GPGGA,154009.985,6236.1335,N,02944.9178,E,1,07,1.4,99.7,M,,,,0000*3E
$GPGSA,A,3,05,30,02,04,06,01,14,,,,,,2.4,1.4,1.9*3B
$GPGSV,3,1,10,05,74,187,50,30,68,251,49,02,47,111,44,04,35,059,39*75
$GPGSV,3,2,10,06,26,233,35,31,26,313,27,01,24,296,29,14,14,260,29*73
$GPGSV,3,3,10,09,08,173,00,20,07,353,00*7C
$GPRMC,154009.985,A,6236.1335,N,02944.9178,E,8.320656,23.24,270807,,A*77
$GPGGA,154010.789,6236.1353,N,02944.9196,E,1,06,1.4,99.6,M,,,,0000*34
$GPGSA,A,3,05,30,02,04,06,01,,,,,,,2.7,1.4,2.2*35
$GPGSV,3,1,10,05,74,187,53,30,68,251,49,02,47,111,47,04,35,059,39*75
$GPGSV,3,2,10,06,26,233,38,31,26,313,27,01,24,296,33,14,14,260,29*75
$GPGSV,3,3,10,09,08,173,00,20,07,353,00*7C
$GPRMC,154010.789,A,6236.1353,N,02944.9196,E,9.394768,22.84,270807,,A*74
$GPGGA,154011.985,6236.1383,N,02944.9227,E,1,05,2.2,99.4,M,,,,0000*37
$GPGSA,A,3,05,30,02,04,06,,,,,,,,3.3,2.2,2.3*35
$GPGSV,3,1,10,05,74,187,51,30,68,251,48,02,47,111,42,04,35,059,40*7D
$GPGSV,3,2,10,06,26,233,37,31,26,313,27,01,24,296,33,14,14,260,29*7A
$GPGSV,3,3,10,09,08,173,00,20,07,353,00*7C
$GPRMC,154011.985,A,6236.1383,N,02944.9227,E,10.156940,25.80,270807,,A*40
$GPGGA,154012.984,6236.1410,N,02944.9253,E,1,07,1.2,99.3,M,,,,0000*3D
$GPGSA,A,3,05,30,02,04,06,31,01,,,,,,2.6,1.2,2.2*30
$GPGSV,3,1,10,05,74,187,51,30,68,251,50,02,47,111,45,04,35,059,41*72
$GPGSV,3,2,10,06,26,233,34,31,26,313,29,01,24,296,36,14,14,260,24*7F
$GPGSV,3,3,10,09,08,173,00,20,07,353,00*7C
$GPRMC,154012.984,A,6236.1410,N,02944.9253,E,10.383613,22.47,270807,,A*43
$GPGGA,154013.985,6236.1437,N,02944.9275,E,1,07,1.2,99.1,M,,,,0000*3E
$GPGSA,A,3,05,30,02,04,06,31,01,,,,,,2.6,1.2,2.2*30
$GPGSV,3,1,10,05,74,187,49,30,68,251,51,02,47,111,47,04,35,059,42*7B
$GPGSV,3,2,10,06,26,233,39,31,26,313,35,01,24,296,39,14,14,260,24*70
$GPGSV,3,3,10,09,08,173,00,20,07,353,00*7C
$GPRMC,154013.985,A,6236.1437,N,02944.9275,E,10.120985,20.70,270807,,A*4F
$GPGGA,154014.985,6236.1465,N,02944.9294,E,1,07,1.2,98.8,M,,,,0000*39
$GPGSA,A,3,05,30,02,04,06,31,01,,,,,,2.6,1.2,2.2*30
$GPGSV,3,1,10,05,74,187,50,30,68,251,50,02,47,111,49,04,35,059,44*7A
$GPGSV,3,2,10,06,26,233,40,31,26,313,33,01,24,296,40,14,14,260,24*76
$GPGSV,3,3,10,09,08,173,00,20,07,353,00*7C
$GPRMC,154014.985,A,6236.1465,N,02944.9294,E,11.044823,19.43,270807,,A*45
$GPGGA,154015.985,6236.1496,N,02944.9316,E,1,07,1.4,98.7,M,,,,0000*36
$GPGSA,A,3,05,30,02,04,06,01,14,,,,,,2.4,1.4,1.9*3B
$GPGSV,3,1,10,05,74,187,50,30,68,251,50,02,47,111,46,04,35,059,44*75
$GPGSV,3,2,10,06,26,233,37,31,26,313,33,01,24,296,39,14,14,260,31*7C
$GPGSV,3,3,10,09,08,173,00,20,07,353,00*7C
$GPRMC,154015.985,A,6236.1496,N,02944.9316,E,11.825589,20.72,270807,,A*49
$GPGGA,154016.985,6236.1528,N,02944.9340,E,1,06,1.4,98.5,M,,,,0000*31
$GPGSA,A,3,05,30,02,04,06,01,,,,,,,2.7,1.4,2.2*35
$GPGSV,3,1,10,05,74,187,50,30,68,251,51,02,47,111,49,04,35,059,45*7A
$GPGSV,3,2,10,06,26,233,40,31,26,313,33,01,24,296,38,14,14,260,31*7D
$GPGSV,3,3,10,09,08,173,00,20,07,353,00*7C
$GPRMC,154016.985,A,6236.1528,N,02944.9340,E,12.919127,20.15,270807,,A*41
$GPGGA,154017.985,6236.1564,N,02944.9368,E,1,07,1.4,98.2,M,,,,0000*34
$GPGSA,A,3,05,30,02,04,06,01,14,,,,,,2.4,1.4,1.9*3B
$GPGSV,3,1,10,05,74,187,50,30,68,251,50,02,47,111,45,04,35,059,40*72
$GPGSV,3,2,10,06,26,233,38,31,26,313,25,01,24,296,38,14,14,260,31*75
$GPGSV,3,3,10,09,08,173,00,20,07,353,00*7C
$GPRMC,154017.985,A,6236.1564,N,02944.9368,E,13.909304,21.28,270807,,A*4E
$GPGGA,154018.985,6236.1602,N,02944.9401,E,1,07,1.4,98.1,M,,,,0000*33
$GPGSA,A,3,05,30,02,04,06,01,14,,,,,,2.4,1.4,1.9*3B
$GPGSV,3,1,10,05,74,187,52,30,68,251,49,02,47,111,48,04,35,059,40*75
$GPGSV,3,2,10,06,26,233,39,31,26,313,25,01,24,296,40,14,14,260,34*7E
$GPGSV,3,3,10,09,08,173,00,20,07,353,00*7C
$GPRMC,154018.985,A,6236.1602,N,02944.9401,E,15.845468,22.91,270807,,A*49
$GPGGA,154019.985,6236.1644,N,02944.9436,E,1,06,1.4,97.8,M,,,,0000*33
$GPGSA,A,3,05,30,02,04,06,01,,,,,,,2.7,1.4,2.2*35
$GPGSV,3,1,10,05,74,187,51,30,68,251,50,02,47,111,46,04,35,059,37*70
$GPGSV,3,2,10,06,26,233,36,31,26,313,25,01,24,296,36,14,14,260,34*70
$GPGSV,3,3,10,09,08,173,00,20,07,353,00*7C
$GPRMC,154019.985,A,6236.1644,N,02944.9436,E,16.384335,21.74,270807,,A*4C
$GPGGA,154020.985,6236.1687,N,02944.9471,E,1,07,1.4,97.5,M,,,,0000*39
$GPGSA,A,3,05,30,02,04,06,01,14,,,,,,2.4,1.4,1.9*3B
$GPGSV,3,1,10,05,74,187,52,30,68,251,51,02,47,111,46,04,35,059,42*70
$GPGSV,3,2,10,06,26,233,39,31,26,313,25,01,24,296,41,14,14,260,35*7E
$GPGSV,3,3,10,09,08,173,00,20,07,353,27*79
$GPRMC,154020.985,A,6236.1687,N,02944.9471,E,16.117318,22.82,270807,,A*47
$GPGGA,154021.985,6236.1728,N,02944.9507,E,1,05,2.2,97.0,M,,,,0000*3E
$GPGSA,A,3,05,30,02,04,06,,,,,,,,3.3,2.2,2.3*35
$GPGSV,3,1,10,05,74,187,51,30,68,251,49,02,47,111,41,04,35,059,40*7F
$GPGSV,3,2,10,06,26,233,37,31,26,313,24,01,24,296,27,14,14,260,35*71
$GPGSV,3,3,10,09,08,173,00,20,07,353,00*7C
$GPRMC,154021.985,A,6236.1728,N,02944.9507,E,15.805728,21.96,270807,,A*4A
$GPGGA,154022.985,6236.1770,N,02944.9543,E,1,07,1.2,96.7,M,,,,0000*37
$GPGSA,A,3,05,30,02,04,06,31,14,,,,,,2.3,1.2,1.9*39
$GPGSV,3,1,10,05,74,187,50,30,68,251,50,02,47,111,46,04,35,059,42*73
$GPGSV,3,2,10,06,26,233,36,31,26,313,32,01,24,296,00,14,14,260,33*74
$GPGSV,3,3,10,09,08,173,00,20,07,353,00*7C
$GPRMC,154022.985,A,6236.1770,N,02944.9543,E,16.096919,22.14,270807,,A*40
$GPGGA,154023.985,6236.1811,N,02944.9578,E,1,07,1.2,96.5,M,,,,0000*34
$GPGSA,A,3,05,30,02,04,06,31,01,,,,,,2.6,1.2,2.2*30
$GPGSV,3,1,10,05,74,187,51,30,68,251,47,02,47,111,46,04,35,059,40*76
$GPGSV,3,2,10,06,26,233,41,31,26,313,37,01,24,296,33,14,14,260,33*71
$GPGSV,3,3,10,09,08,173,00,20,07,353,00*7C
$GPRMC,154023.985,A,6236.1811,N,02944.9578,E,15.893232,23.07,270807,,A*4E
$GPGGA,154024.985,6236.1852,N,02944.9614,E,1,08,1.2,96.2,M,,,,0000*35
$GPGSA,A,3,05,30,02,04,06,31,01,14,,,,,2.2,1.2,1.9*39
$GPGSV,3,1,10,05,74,187,52,30,68,251,50,02,47,111,45,04,35,059,43*73
$GPGSV,3,2,10,06,26,233,40,31,26,313,41,01,24,296,37,14,14,260,35*73
$GPGSV,3,3,10,09,08,173,00,20,07,353,00*7C
$GPRMC,154024.985,A,6236.1852,N,02944.9614,E,15.125045,23.09,270807,,A*4F
$GPGGA,154025.985,6236.1890,N,02944.9647,E,1,07,1.2,95.9,M,,,,0000*3B
$GPGSA,A,3,05,30,02,04,06,31,01,,,,,,2.6,1.2,2.2*30
$GPGSV,3,1,10,05,74,187,50,30,68,251,50,02,47,111,45,04,35,059,46*74
$GPGSV,3,2,10,06,26,233,40,31,26,313,38,01,24,296,38,14,14,260,35*72
$GPGSV,3,3,10,09,08,173,00,20,07,353,00*7C
$GPRMC,154025.985,A,6236.1890,N,02944.9647,E,13.993348,22.28,270807,,A*49
$GPGGA,154026.985,6236.1925,N,02944.9678,E,1,06,1.4,95.8,M,,,,0000*3D
$GPGSA,A,3,05,30,02,04,06,01,,,,,,,2.7,1.4,2.2*35
$GPGSV,3,1,10,05,74,187,50,30,68,251,50,02,47,111,46,04,35,059,39*7F
$GPGSV,3,2,10,06,26,233,40,31,26,313,38,01,24,296,38,14,14,260,27*71
$GPGSV,3,3,10,09,08,173,00,20,07,353,00*7C
$GPRMC,154026.985,A,6236.1925,N,02944.9678,E,12.992245,22.37,270807,,A*4B
$GPGGA,154027.985,6236.1958,N,02944.9707,E,1,08,1.2,95.6,M,,,,0000*39
$GPGSA,A,3,05,30,02,04,06,31,01,14,,,,,2.2,1.2,1.9*39
$GPGSV,3,1,10,05,74,187,48,30,68,251,50,02,47,111,41,04,35,059,40*7F
$GPGSV,3,2,10,06,26,233,37,31,26,313,35,01,24,296,36,14,14,260,35*71
$GPGSV,3,3,10,09,08,173,00,20,07,353,00*7C
$GPRMC,154027.985,A,6236.1958,N,02944.9707,E,11.723715,23.37,270807,,A*4F
$GPGGA,154028.985,6236.1986,N,02944.9732,E,1,08,1.2,95.2,M,,,,0000*37
$GPGSA,A,3,05,30,02,04,06,31,01,14,,,,,2.2,1.2,1.9*39
$GPGSV,3,1,10,05,74,187,49,30,68,251,49,02,47,111,44,04,35,059,41*72
$GPGSV,3,2,10,06,26,233,37,31,26,313,34,01,24,296,37,14,14,260,33*77
$GPGSV,3,3,10,09,08,173,00,20,07,353,00*7C
$GPRMC,154028.985,A,6236.1986,N,02944.9732,E,10.153121,22.69,270807,,A*4E
$GPGGA,154029.985,6236.2008,N,02944.9752,E,1,08,1.2,94.8,M,,,,0000*37
$GPGSA,A,3,05,30,02,04,06,31,01,14,,,,,2.2,1.2,1.9*39
$GPGSV,3,1,10,05,74,187,48,30,68,251,49,02,47,111,45,04,35,059,42*71
$GPGSV,3,2,10,06,26,233,38,31,26,313,40,01,24,296,37,14,14,260,35*7D
$GPGSV,3,3,10,09,08,173,00,20,07,353,00*7C
$GPRMC,154029.985,A,6236.2008,N,02944.9752,E,6.518844,23.19,270807,,A*75
$GPGGA,154030.985,6236.2023,N,02944.9765,E,1,08,1.2,94.5,M,,,,0000*3F
$GPGSA,A,3,05,30,02,04,06,31,01,14,,,,,2.2,1.2,1.9*39
$GPGSV,3,1,10,05,74,187,49,30,68,251,50,02,47,111,42,04,35,059,40*7D
$GPGSV,3,2,10,06,26,233,41,31,26,313,38,01,24,296,36,14,14,260,40*7F
$GPGSV,3,3,10,09,08,173,00,20,07,353,00*7C
$GPRMC,154030.985,A,6236.2023,N,02944.9765,E,4.251118,23.97,270807,,A*7E
$GPGGA,154031.985,6236.2032,N,02944.9773,E,1,07,1.4,94.4,M,,,,0000*31
$GPGSA,A,3,05,30,02,04,06,01,14,,,,,,2.4,1.4,1.9*3B
$GPGSV,3,1,10,05,74,187,51,30,68,251,49,02,47,111,49,04,35,059,37*77
$GPGSV,3,2,10,06,26,233,37,31,26,313,25,01,24,296,34,14,14,260,37*70
$GPGSV,3,3,10,09,08,173,00,20,07,353,00*7C
$GPRMC,154031.985,A,6236.2032,N,02944.9773,E,2.462892,18.13,270807,,A*77
$GPGGA,154032.985,6236.2039,N,02944.9777,E,1,07,1.4,94.4,M,,,,0000*3D
$GPGSA,A,3,05,30,02,04,06,01,14,,,,,,2.4,1.4,1.9*3B
$GPGSV,3,1,10,05,74,187,49,30,68,251,49,02,47,111,47,04,35,059,38*7F
$GPGSV,3,2,10,06,26,233,37,31,26,313,25,01,24,296,35,14,14,260,31*77
$GPGSV,3,3,10,09,08,173,00,20,07,353,00*7C
$GPRMC,154032.985,A,6236.2039,N,02944.9777,E,1.936443,12.04,270807,,A*78
$GPGGA,154033.985,6236.2043,N,02944.9776,E,1,08,1.2,94.2,M,,,,0000*3F
$GPGSA,A,3,05,30,02,04,06,31,01,14,,,,,2.2,1.2,1.9*39
$GPGSV,3,1,10,05,74,187,50,30,68,251,50,02,47,111,47,04,35,059,39*7E
$GPGSV,3,2,10,06,26,233,38,31,26,313,34,01,24,296,32,14,14,260,32*7C
$GPGSV,3,3,10,09,08,173,00,20,07,353,00*7C
$GPRMC,154033.985,A,6236.2043,N,02944.9776,E,0.071689,2.27,270807,,A*4A
$GPGGA,154034.985,6236.2044,N,02944.9775,E,1,08,1.2,94.1,M,,,,0000*3F
$GPGSA,A,3,05,30,02,04,06,31,01,14,,,,,2.2,1.2,1.9*39
$GPGSV,3,1,10,05,74,187,52,30,68,251,49,02,47,111,44,04,35,059,40*79
$GPGSV,3,2,10,06,26,233,40,31,26,313,35,01,24,296,34,14,14,260,33*75
$GPGSV,3,3,10,09,08,173,00,20,07,353,00*7C
$GPRMC,154034.985,A,6236.2044,N,02944.9775,E,0.029705,314.01,270807,,A*41
$GPGGA,154035.985,6236.2045,N,02944.9774,E,1,07,1.2,94.0,M,,,,0000*30
$GPGSA,A,3,05,30,02,04,06,31,01,,,,,,2.6,1.2,2.2*30
$GPGSV,3,1,10,05,74,187,52,30,68,251,50,02,47,111,46,04,35,059,39*7D
$GPGSV,3,2,10,06,26,233,41,31,26,313,36,01,24,296,36,14,14,260,28*7F
$GPGSV,3,3,10,09,08,173,00,20,07,353,00*7C
$GPRMC,154035.985,A,6236.2045,N,02944.9774,E,0.264594,141.19,270807,,A*4A
$GPGGA,154036.985,6236.2046,N,02944.9773,E,1,08,1.2,94.2,M,,,,0000*3A
$GPGSA,A,3,05,30,02,04,06,31,01,14,,,,,2.2,1.2,1.9*39
$GPGSV,3,1,10,05,74,187,52,30,68,251,49,02,47,111,43,04,35,059,40*7E
$GPGSV,3,2,10,06,26,233,42,31,26,313,37,01,24,296,37,14,14,260,36*73
$GPGSV,3,3,10,09,08,173,00,20,07,353,30*7F
$GPRMC,154036.985,A,6236.2046,N,02944.9773,E,0.388041,355.71,270807,,A*4A
$GPGGA,154037.985,6236.2047,N,02944.9773,E,1,08,1.2,94.2,M,,,,0000*3A
$GPGSA,A,3,05,30,02,04,06,31,01,14,,,,,2.2,1.2,1.9*39
$GPGSV,3,1,10,05,74,187,52,30,68,251,50,02,47,111,45,04,35,059,38*7F
$GPGSV,3,2,10,06,26,233,40,31,26,313,33,01,24,296,38,14,14,260,32*7E
$GPGSV,3,3,10,09,08,173,00,20,07,353,00*7C
$GPRMC,154037.985,A,6236.2047,N,02944.9773,E,0.213468,21.58,270807,,A*7D
$GPGGA,154038.985,6236.2049,N,02944.9773,E,1,08,1.2,94.1,M,,,,0000*38
$GPGSA,A,3,05,30,02,04,06,31,01,14,,,,,2.2,1.2,1.9*39
$GPGSV,3,1,10,05,74,187,51,30,68,251,49,02,47,111,44,04,35,059,39*74
$GPGSV,3,2,10,06,26,233,41,31,26,313,33,01,24,296,37,14,14,260,33*71
$GPGSV,3,3,10,09,08,173,00,20,07,353,00*7C
$GPRMC,154038.985,A,6236.2049,N,02944.9773,E,0.259645,35.49,270807,,A*7A
$GPGGA,154039.985,6236.2050,N,02944.9773,E,1,07,1.4,94.1,M,,,,0000*38
$GPGSA,A,3,05,30,02,04,06,01,14,,,,,,2.4,1.4,1.9*3B
$GPGSV,3,1,10,05,74,187,51,30,68,251,50,02,47,111,44,04,35,059,38*7D
$GPGSV,3,2,10,06,26,233,39,31,26,313,29,01,24,296,37,14,14,260,32*74
$GPGSV,3,3,10,09,08,173,00,20,07,353,29*77
$GPRMC,154039.985,A,6236.2050,N,02944.9773,E,0.079700,103.22,270807,,A*4A
$GPGGA,154040.985,6236.2051,N,02944.9773,E,1,08,1.2,94.1,M,,,,0000*3E
$GPGSA,A,3,05,30,02,04,06,31,01,14,,,,,2.2,1.2,1.9*39
$GPGSV,3,1,10,05,74,187,50,30,68,251,49,02,47,111,44,04,35,059,37*7B
$GPGSV,3,2,10,06,26,233,41,31,26,313,33,01,24,296,33,14,14,260,33*75
$GPGSV,3,3,10,09,08,173,00,20,07,353,00*7C
$GPRMC,154040.985,A,6236.2051,N,02944.9773,E,0.187748,296.88,270807,,A*46
$GPGGA,154041.985,6236.2052,N,02944.9773,E,1,08,1.2,94.2,M,,,,0000*3F
$GPGSA,A,3,05,30,02,04,06,31,01,14,,,,,2.2,1.2,1.9*39
$GPGSV,3,1,10,05,74,187,50,30,68,251,50,02,47,111,47,04,35,059,40*70
$GPGSV,3,2,10,06,26,233,43,31,26,313,38,01,24,296,40,14,14,260,35*7E
$GPGSV,3,3,10,09,08,173,00,20,07,353,00*7C
$GPRMC,154041.985,A,6236.2052,N,02944.9773,E,0.089552,107.09,270807,,A*40
$GPGGA,154042.985,6236.2053,N,02944.9774,E,1,08,1.2,94.4,M,,,,0000*3C
$GPGSA,A,3,05,30,02,04,06,31,01,14,,,,,2.2,1.2,1.9*39
$GPGSV,3,1,10,05,74,187,49,30,68,251,49,02,47,111,45,04,35,059,37*72
$GPGSV,3,2,10,06,26,233,41,31,26,313,33,01,24,296,37,14,14,260,34*76
$GPGSV,3,3,10,09,08,173,00,20,07,353,00*7C
$GPRMC,154042.985,A,6236.2053,N,02944.9774,E,0.184195,74.02,270807,,A*78
$GPGGA,154043.985,6236.2054,N,02944.9775,E,1,08,1.2,94.5,M,,,,0000*3A
$GPGSA,A,3,05,30,02,04,06,31,01,14,,,,,2.2,1.2,1.9*39
$GPGSV,3,1,10,05,74,187,52,30,68,251,50,02,47,111,44,04,35,059,38*7E
$GPGSV,3,2,10,06,26,233,43,31,26,313,36,01,24,296,39,14,14,260,37*7C
$GPGSV,3,3,10,09,08,173,00,20,07,353,00*7C
$GPRMC,154043.985,A,6236.2054,N,02944.9775,E,0.274243,167.91,270807,,A*42
$GPGGA,154044.985,6236.2055,N,02944.9776,E,1,09,1.0,94.6,M,,,,0000*3F
$GPGSA,A,3,05,30,02,04,06,31,01,14,20,,,,2.1,1.0,1.7*34
$GPGSV,3,1,10,05,74,187,53,30,68,251,50,02,47,111,46,04,35,059,36*73
$GPGSV,3,2,10,06,26,233,42,31,26,313,36,01,24,296,39,14,14,260,35*7F
$GPGSV,3,3,10,09,08,173,00,20,07,353,33*7C
$GPRMC,154044.985,A,6236.2055,N,02944.9776,E,0.306908,13.84,270807,,A*71
$GPGGA,154045.985,6236.2057,N,02944.9776,E,1,08,1.2,94.9,M,,,,0000*30
$GPGSA,A,3,05,30,02,04,06,31,01,14,,,,,2.2,1.2,1.9*39
$GPGSV,3,1,10,05,74,187,50,30,68,251,50,02,47,111,44,04,35,059,39*7D
$GPGSV,3,2,10,06,26,233,40,31,26,313,33,01,24,296,35,14,14,260,34*75
$GPGSV,3,3,10,09,08,173,00,20,07,353,33*7C
$GPRMC,154045.985,A,6236.2057,N,02944.9776,E,0.124489,358.96,270807,,A*4B
$GPGGA,154046.985,6236.2058,N,02944.9778,E,1,09,1.0,95.0,M,,,,0000*39
$GPGSA,A,3,05,30,02,04,06,31,01,14,20,,,,2.1,1.0,1.7*34
$GPGSV,3,1,10,05,74,187,51,30,68,251,50,02,47,111,45,04,35,059,38*7C
$GPGSV,3,2,10,06,26,233,45,31,26,313,36,01,24,296,37,14,14,260,36*75
$GPGSV,3,3,10,09,08,173,00,20,07,353,33*7C
$GPRMC,154046.985,A,6236.2058,N,02944.9778,E,0.147643,102.32,270807,,A*4B
$GPGGA,154047.985,6236.2059,N,02944.9780,E,1,08,1.2,95.1,M,,,,0000*3C
$GPGSA,A,3,05,30,02,04,06,31,01,14,,,,,2.2,1.2,1.9*39
$GPGSV,3,1,10,05,74,187,50,30,68,251,49,02,47,111,46,04,35,059,36*78
$GPGSV,3,2,10,06,26,233,40,31,26,313,33,01,24,296,36,14,14,260,32*70
$GPGSV,3,3,10,09,08,173,00,20,07,353,31*7E
$GPRMC,154047.985,A,6236.2059,N,02944.9780,E,0.370944,165.73,270807,,A*46
$GPGGA,154048.985,6236.2059,N,02944.9780,E,1,08,1.2,95.5,M,,,,0000*37
$GPGSA,A,3,05,30,02,04,06,31,01,14,,,,,2.2,1.2,1.9*39
$GPGSV,3,1,10,05,74,187,51,30,68,251,51,02,47,111,48,04,35,059,39*71
$GPGSV,3,2,10,06,26,233,42,31,26,313,38,01,24,296,39,14,14,260,35*71
$GPGSV,3,3,10,09,08,173,00,20,07,353,00*7C
$GPRMC,154048.985,A,6236.2059,N,02944.9780,E,0.166497,356.21,270807,,A*4A
$GPGGA,154049.985,6236.2060,N,02944.9779,E,1,08,1.2,95.6,M,,,,0000*39
$GPGSA,A,3,05,30,02,04,06,31,01,14,,,,,2.2,1.2,1.9*39
$GPGSV,3,1,10,05,74,187,51,30,68,251,49,02,47,111,47,04,35,059,39*77
$GPGSV,3,2,10,06,26,233,42,31,26,313,39,01,24,296,38,14,14,260,33*77
$GPGSV,3,3,10,09,08,173,00,20,07,353,00*7C
$GPRMC,154049.985,A,6236.2060,N,02944.9779,E,0.312916,296.01,270807,,A*4D
$GPGGA,154050.985,6236.2061,N,02944.9779,E,1,09,1.0,95.6,M,,,,0000*33
$GPGSA,A,3,05,30,02,04,06,31,01,14,20,,,,2.1,1.0,1.7*34
$GPGSV,3,1,10,05,74,187,51,30,68,251,50,02,47,111,47,04,35,059,41*70
$GPGSV,3,2,10,06,26,233,43,31,26,313,39,01,24,296,39,14,14,260,35*71
$GPGSV,3,3,10,09,08,173,00,20,07,353,33*7C
$GPRMC,154050.985,A,6236.2061,N,02944.9779,E,0.120500,183.40,270807,,A*4E
$GPGGA,154051.985,6236.2061,N,02944.9778,E,1,09,1.0,95.6,M,,,,0000*33
$GPGSA,A,3,05,30,02,04,06,31,01,14,20,,,,2.1,1.0,1.7*34
$GPGSV,3,1,10,05,74,187,51,30,68,251,50,02,47,111,47,04,35,059,37*71
$GPGSV,3,2,10,06,26,233,40,31,26,313,35,01,24,296,35,14,14,260,33*74
$GPGSV,3,3,10,09,08,173,00,20,07,353,36*79
$GPRMC,154051.985,A,6236.2061,N,02944.9778,E,0.166493,143.31,270807,,A*4D
$GPGGA,154052.985,6236.2062,N,02944.9778,E,1,08,1.2,95.5,M,,,,0000*33
$GPGSA,A,3,05,30,02,04,06,31,01,14,,,,,2.2,1.2,1.9*39
$GPGSV,3,1,10,05,74,187,50,30,68,251,50,02,47,111,46,04,35,059,36*70
$GPGSV,3,2,10,06,26,233,40,31,26,313,35,01,24,296,35,14,14,260,34*73
$GPGSV,3,3,10,09,08,173,00,20,07,353,36*79
$GPRMC,154052.985,A,6236.2062,N,02944.9778,E,0.081097,242.88,270807,,A*45
$GPGGA,154053.986,6236.2062,N,02944.9778,E,1,08,1.2,95.4,M,,,,0000*30
$GPGSA,A,3,05,30,02,04,06,31,01,14,,,,,2.2,1.2,1.9*39
$GPGSV,3,1,10,05,74,187,50,30,68,251,50,02,47,111,47,04,35,059,36*71
$GPGSV,3,2,10,06,26,233,41,31,26,313,37,01,24,296,31,14,14,260,35*75
$GPGSV,3,3,10,09,08,173,00,20,07,353,36*79
$GPRMC,154053.986,A,6236.2062,N,02944.9778,E,0.233665,51.06,270807,,A*71
$GPGGA,154054.986,6236.2063,N,02944.9779,E,1,08,1.2,95.3,M,,,,0000*30
$GPGSA,A,3,05,30,02,04,06,31,01,14,,,,,2.2,1.2,1.9*39
$GPGSV,3,1,10,05,74,187,51,30,68,251,50,02,47,111,46,04,35,059,36*71
$GPGSV,3,2,10,06,26,233,42,31,26,313,36,01,24,296,36,14,14,260,33*76
$GPGSV,3,3,10,09,08,173,00,20,07,353,29*77
$GPRMC,154054.986,A,6236.2063,N,02944.9779,E,0.262578,135.67,270807,,A*49
$GPGGA,154055.985,6236.2064,N,02944.9779,E,1,06,1.2,94.8,M,,,,0000*31
$GPGSA,A,3,05,30,02,04,06,31,,,,,,,2.7,1.2,2.3*31
$GPGSV,3,1,10,05,74,187,51,30,68,251,49,02,47,111,44,04,35,059,36*7B
$GPGSV,3,2,10,06,26,233,41,31,26,313,31,01,24,296,36,14,14,260,21*71
$GPGSV,3,3,10,09,08,173,00,20,07,353,00*7C
$GPRMC,154055.985,A,6236.2064,N,02944.9779,E,0.083860,305.33,270807,,A*45
$GPGGA,154056.986,6236.2064,N,02944.9779,E,1,05,2.2,94.4,M,,,,0000*3D
$GPGSA,A,3,05,30,02,04,06,,,,,,,,3.3,2.2,2.3*35
$GPGSV,3,1,10,05,74,187,50,30,68,251,49,02,47,111,47,04,35,059,35*7A
$GPGSV,3,2,10,06,26,233,39,31,26,313,31,01,24,296,36,14,14,260,00*7D
$GPGSV,3,3,10,09,08,173,00,20,07,353,00*7C
$GPRMC,154056.986,A,6236.2064,N,02944.9779,E,0.325596,180.62,270807,,A*45
$GPGGA,154057.985,6236.2065,N,02944.9777,E,1,08,1.2,93.9,M,,,,0000*34
$GPGSA,A,3,05,30,02,04,06,31,01,14,,,,,2.2,1.2,1.9*39
$GPGSV,3,1,10,05,74,187,51,30,68,251,49,02,47,111,46,04,35,059,38*77
$GPGSV,3,2,10,06,26,233,39,31,26,313,34,01,24,296,31,14,14,260,34*78
$GPGSV,3,3,10,09,08,173,00,20,07,353,00*7C
$GPRMC,154057.985,A,6236.2065,N,02944.9777,E,0.169907,14.26,270807,,A*7A
$GPGGA,154058.986,6236.2066,N,02944.9775,E,1,09,1.0,93.5,M,,,,0000*36
$GPGSA,A,3,05,30,02,04,06,31,01,14,20,,,,2.1,1.0,1.7*34
$GPGSV,3,1,10,05,74,187,50,30,68,251,50,02,47,111,47,04,35,059,39*7E
$GPGSV,3,2,10,06,26,233,40,31,26,313,33,01,24,296,31,14,14,260,34*71
$GPGSV,3,3,10,09,08,173,00,20,07,353,33*7C
$GPRMC,154058.986,A,6236.2066,N,02944.9775,E,0.019631,178.61,270807,,A*43
$GPGGA,154059.985,6236.2067,N,02944.9774,E,1,07,1.2,93.3,M,,,,0000*3E
$GPGSA,A,3,05,30,02,04,06,31,14,,,,,,2.3,1.2,1.9*39
$GPGSV,3,1,10,05,74,187,51,30,68,251,49,02,47,111,46,04,35,059,40*78
$GPGSV,3,2,10,06,26,233,41,31,26,313,33,01,24,296,31,14,14,260,37*73
$GPGSV,3,3,10,09,08,173,00,20,07,353,23*7D
$GPRMC,154059.985,A,6236.2067,N,02944.9774,E,0.200615,154.65,270807,,A*47
$GPGGA,154100.986,6236.2067,N,02944.9772,E,1,07,1.2,93.2,M,,,,0000*37
$GPGSA,A,3,05,30,02,04,06,31,14,,,,,,2.3,1.2,1.9*39
$GPGSV,3,1,10,05,74,187,51,30,68,251,50,02,47,111,45,04,35,059,40*73
$GPGSV,3,2,10,06,26,233,43,31,26,313,35,01,24,296,31,14,14,260,38*78
$GPGSV,3,3,10,09,08,173,00,20,07,353,00*7C
$GPRMC,154100.986,A,6236.2067,N,02944.9772,E,0.163198,338.14,270807,,A*45
$GPGGA,154101.986,6236.2068,N,02944.9770,E,1,07,1.2,93.0,M,,,,0000*39
$GPGSA,A,3,05,30,02,04,06,31,14,,,,,,2.3,1.2,1.9*39
$GPGSV,3,1,10,05,74,187,49,30,68,251,49,02,47,111,48,04,35,059,37*7F
$GPGSV,3,2,10,06,26,233,42,31,26,313,34,01,24,296,00,14,14,260,35*77
$GPGSV,3,3,10,09,08,173,00,20,07,353,00*7C
$GPRMC,154101.986,A,6236.2068,N,02944.9770,E,0.037199,177.60,270807,,A*42
$GPGGA,154102.986,6236.2069,N,02944.9770,E,1,07,1.2,92.8,M,,,,0000*32
$GPGSA,A,3,05,30,02,04,06,31,14,,,,,,2.3,1.2,1.9*39
$GPGSV,3,1,10,05,74,187,50,30,68,251,48,02,47,111,47,04,35,059,36*78
$GPGSV,3,2,10,06,26,233,41,31,26,313,36,01,24,296,00,14,14,260,34*77
$GPGSV,3,3,10,09,08,173,00,20,07,353,00*7C
$GPRMC,154102.986,A,6236.2069,N,02944.9770,E,0.309653,2.55,270807,,A*4A
$GPGGA,154103.986,6236.2071,N,02944.9769,E,1,07,1.2,92.5,M,,,,0000*3F
$GPGSA,A,3,05,30,02,04,06,31,14,,,,,,2.3,1.2,1.9*39
$GPGSV,3,1,10,05,74,187,51,30,68,251,49,02,47,111,46,04,35,059,37*78
$GPGSV,3,2,10,06,26,233,40,31,26,313,35,01,24,296,00,14,14,260,33*72
$GPGSV,3,3,10,09,08,173,00,20,07,353,00*7C
$GPRMC,154103.986,A,6236.2071,N,02944.9769,E,0.283744,349.73,270807,,A*46
$GPGGA,154104.986,6236.2071,N,02944.9768,E,1,08,1.2,92.2,M,,,,0000*31
$GPGSA,A,3,05,30,02,04,06,31,14,20,,,,,2.1,1.2,1.7*37
$GPGSV,3,1,10,05,74,187,50,30,68,251,49,02,47,111,45,04,35,059,36*7B
$GPGSV,3,2,10,06,26,233,39,31,26,313,35,01,24,296,00,14,14,260,34*7B
$GPGSV,3,3,10,09,08,173,00,20,07,353,33*7C
$GPRMC,154104.986,A,6236.2071,N,02944.9768,E,0.382010,167.76,270807,,A*4D
$GPGGA,154105.986,6236.2071,N,02944.9769,E,1,07,1.2,92.0,M,,,,0000*3C
$GPGSA,A,3,05,30,02,04,06,31,14,,,,,,2.3,1.2,1.9*39
$GPGSV,3,1,10,05,74,187,51,30,68,251,50,02,47,111,48,04,35,059,37*7E
$GPGSV,3,2,10,06,26,233,42,31,26,313,37,01,24,296,00,14,14,260,36*77
$GPGSV,3,3,10,09,08,173,00,20,07,353,33*7C
$GPRMC,154105.986,A,6236.2071,N,02944.9769,E,0.098828,35.82,270807,,A*7B
$GPGGA,154106.986,6236.2071,N,02944.9772,E,1,07,1.2,91.6,M,,,,0000*30
$GPGSA,A,3,05,30,02,04,06,31,14,,,,,,2.3,1.2,1.9*39
$GPGSV,3,1,10,05,73,183,51,30,69,248,51,02,47,109,46,04,34,058,37*72
$GPGSV,3,2,10,06,28,233,39,31,27,312,35,01,24,295,00,14,13,259,37*78
$GPGSV,3,3,10,20,07,352,33,09,06,173,00*73
$GPRMC,154106.986,A,6236.2071,N,02944.9772,E,0.197642,57.26,270807,,A*74
$GPGGA,154107.986,6236.2073,N,02944.9774,E,1,08,1.2,91.5,M,,,,0000*39
$GPGSA,A,3,05,30,02,04,06,31,01,14,,,,,2.2,1.2,1.9*39
$GPGSV,3,1,10,05,73,183,52,30,69,248,51,02,47,109,48,04,34,058,37*7F
$GPGSV,3,2,10,06,28,233,37,31,27,312,35,01,24,295,37,14,13,259,34*71
$GPGSV,3,3,10,20,07,352,33,09,06,173,00*73
$GPRMC,154107.986,A,6236.2073,N,02944.9774,E,0.932941,20.90,270807,,A*77
$GPGGA,154108.986,6236.2080,N,02944.9782,E,1,07,1.4,91.6,M,,,,0000*39
$GPGSA,A,3,05,30,02,04,06,01,14,,,,,,2.4,1.4,1.9*3B
$GPGSV,3,1,10,05,73,183,50,30,69,248,50,02,47,109,47,04,34,058,40*73
$GPGSV,3,2,10,06,28,233,40,31,27,312,35,01,24,295,37,14,13,259,34*71
$GPGSV,3,3,10,20,07,352,28,09,06,173,00*79
$GPRMC,154108.986,A,6236.2080,N,02944.9782,E,5.420845,24.30,270807,,A*7D
$GPGGA,154109.985,6236.2099,N,02944.9800,E,1,06,1.4,91.8,M,,,,0000*39
$GPGSA,A,3,05,30,02,04,06,01,,,,,,,2.7,1.4,2.2*35
$GPGSV,3,1,10,05,73,183,50,30,69,248,49,02,47,109,47,04,34,058,36*7A
$GPGSV,3,2,10,06,28,233,34,31,27,312,35,01,24,295,35,14,13,259,34*70
$GPGSV,3,3,10,20,07,352,00,09,06,173,00*73
$GPRMC,154109.985,A,6236.2099,N,02944.9800,E,9.475190,24.53,270807,,A*7A
$GPGGA,154110.986,6236.2124,N,02944.9821,E,1,08,1.2,91.9,M,,,,0000*3F
$GPGSA,A,3,05,30,02,04,06,31,01,20,,,,,2.4,1.2,2.0*32
$GPGSV,3,1,10,05,73,183,48,30,69,248,49,02,47,109,44,04,34,058,41*70
$GPGSV,3,2,10,06,28,233,38,31,27,312,34,01,24,295,38,14,13,259,23*76
$GPGSV,3,3,10,20,07,352,30,09,06,173,00*70
$GPRMC,154110.986,A,6236.2124,N,02944.9821,E,9.901386,18.75,270807,,A*75
$GPGGA,154111.985,6236.2153,N,02944.9834,E,1,08,1.2,92.0,M,,,,0000*33
$GPGSA,A,3,05,30,02,04,06,31,01,14,,,,,2.2,1.2,1.9*39
$GPGSV,3,1,10,05,73,183,50,30,69,248,50,02,47,109,46,04,34,058,46*74
$GPGSV,3,2,10,06,28,233,40,31,27,312,38,01,24,295,38,14,13,259,31*76
$GPGSV,3,3,10,20,07,352,26,09,06,173,00*77
$GPRMC,154111.985,A,6236.2153,N,02944.9834,E,11.881779,6.59,270807,,A*76
$GPGGA,154112.985,6236.2187,N,02944.9831,E,1,07,1.2,92.0,M,,,,0000*33
$GPGSA,A,3,05,30,02,04,06,31,01,,,,,,2.6,1.2,2.2*30
$GPGSV,3,1,10,05,73,183,53,30,69,248,47,02,47,109,45,04,34,058,42*76
$GPGSV,3,2,10,06,28,233,41,31,27,312,33,01,24,295,34,14,13,259,31*70
$GPGSV,3,3,10,20,07,352,30,09,06,173,00*70
$GPRMC,154112.985,A,6236.2187,N,02944.9831,E,12.802960,350.51,270807,,A*7F
$GPGGA,154113.986,6236.2222,N,02944.9805,E,1,06,2.8,92.1,M,,,,0000*33
$GPGSA,A,3,05,30,02,04,31,01,,,,,,,5.2,2.8,4.3*3B
$GPGSV,3,1,10,05,73,183,52,30,69,248,48,02,47,109,45,04,34,058,45*7F
$GPGSV,3,2,10,06,28,233,41,31,27,312,46,01,24,295,31,14,13,259,31*77
$GPGSV,3,3,10,20,07,352,39,09,06,173,00*79
$GPRMC,154113.986,A,6236.2222,N,02944.9805,E,14.187143,332.70,270807,,A*7A
$GPGGA,154114.986,6236.2253,N,02944.9752,E,1,07,1.2,92.2,M,,,,0000*34
$GPGSA,A,3,05,30,02,04,06,31,01,,,,,,2.6,1.2,2.2*30
$GPGSV,3,1,10,05,73,183,51,30,69,248,49,02,47,109,45,04,34,058,48*70
$GPGSV,3,2,10,06,28,233,42,31,27,312,43,01,24,295,38,14,13,259,27*7F
$GPGSV,3,3,10,20,07,352,30,09,06,173,00*70
$GPRMC,154114.986,A,6236.2253,N,02944.9752,E,14.477124,309.48,270807,,A*7E
$GPGGA,154115.985,6236.2275,N,02944.9672,E,1,07,1.2,92.3,M,,,,0000*30
$GPGSA,A,3,05,30,02,04,06,31,01,,,,,,2.6,1.2,2.2*30
$GPGSV,3,1,10,05,73,183,50,30,69,248,46,02,47,109,49,04,34,058,43*79
$GPGSV,3,2,10,06,28,233,34,31,27,312,42,01,24,295,40,14,13,259,25*72
$GPGSV,3,3,10,20,07,352,30,09,06,173,00*70
$GPRMC,154115.985,A,6236.2275,N,02944.9672,E,17.105769,293.99,270807,,A*79
$GPGGA,154116.985,6236.2297,N,02944.9564,E,1,07,1.2,92.4,M,,,,0000*3C
$GPGSA,A,3,05,30,02,04,06,31,01,,,,,,2.6,1.2,2.2*30
$GPGSV,3,1,10,05,73,183,52,30,69,248,45,02,47,109,49,04,34,058,43*78
$GPGSV,3,2,10,06,28,233,39,31,27,312,46,01,24,295,41,14,13,259,25*7A
$GPGSV,3,3,10,20,07,352,23,09,06,173,00*72
$GPRMC,154116.985,A,6236.2297,N,02944.9564,E,22.632401,293.45,270807,,A*7B
$GPGGA,154117.985,6236.2327,N,02944.9425,E,1,08,1.2,92.5,M,,,,0000*3D
$GPGSA,A,3,05,30,02,04,06,31,01,14,,,,,2.2,1.2,1.9*39
$GPGSV,3,1,10,05,73,183,50,30,69,248,46,02,47,109,48,04,34,058,42*79
$GPGSV,3,2,10,06,28,233,36,31,27,312,43,01,24,295,41,14,13,259,33*77
$GPGSV,3,3,10,20,07,352,23,09,06,173,00*72
$GPRMC,154117.985,A,6236.2327,N,02944.9425,E,28.303023,295.15,270807,,A*7E
$GPGGA,154118.986,6236.2363,N,02944.9269,E,1,08,1.2,92.5,M,,,,0000*3F
$GPGSA,A,3,05,30,02,04,06,31,01,14,,,,,2.2,1.2,1.9*39
$GPGSV,3,1,10,05,73,183,52,30,69,248,47,02,47,109,49,04,34,058,45*7C
$GPGSV,3,2,10,06,28,233,36,31,27,312,46,01,24,295,45,14,13,259,35*70
$GPGSV,3,3,10,20,07,352,23,09,06,173,00*72
$GPRMC,154118.986,A,6236.2363,N,02944.9269,E,29.788596,297.49,270807,,A*7A
$GPGGA,154119.986,6236.2403,N,02944.9115,E,1,08,1.2,92.6,M,,,,0000*34
$GPGSA,A,3,05,30,02,04,06,31,01,14,,,,,2.2,1.2,1.9*39
$GPGSV,3,1,10,05,73,183,52,30,69,248,47,02,47,109,48,04,34,058,37*78
$GPGSV,3,2,10,06,28,233,33,31,27,312,45,01,24,295,45,14,13,259,33*70
$GPGSV,3,3,10,20,07,352,23,09,06,173,34*75
$GPRMC,154119.986,A,6236.2403,N,02944.9115,E,29.505183,301.50,270807,,A*73
$GPGGA,154120.985,6236.2449,N,02944.8970,E,1,08,1.2,92.8,M,,,,0000*37
$GPGSA,A,3,05,30,02,04,06,31,01,14,,,,,2.2,1.2,1.9*39
$GPGSV,3,1,10,05,73,183,54,30,69,248,49,02,47,109,48,04,34,058,46*76
$GPGSV,3,2,10,06,28,233,42,31,27,312,40,01,24,295,37,14,13,259,37*72
$GPGSV,3,3,10,20,07,352,23,09,06,173,34*75
$GPRMC,154120.985,A,6236.2449,N,02944.8970,E,29.638417,307.28,270807,,A*72
$GPGGA,154121.986,6236.2501,N,02944.8831,E,1,06,1.2,93.0,M,,,,0000*3B
$GPGSA,A,3,05,30,02,04,06,31,,,,,,,2.7,1.2,2.3*31
$GPGSV,3,1,10,05,73,183,52,30,69,248,49,02,47,109,45,04,34,058,37*7B
$GPGSV,3,2,10,06,28,233,40,31,27,312,39,01,24,295,37,14,13,259,37*7E
$GPGSV,3,3,10,20,07,352,23,09,06,173,34*75
$GPRMC,154121.986,A,6236.2501,N,02944.8831,E,30.392013,309.92,270807,,A*7B
$GPGGA,154122.985,6236.2557,N,02944.8691,E,1,05,1.6,93.1,M,,,,0000*3A
$GPGSA,A,3,05,30,02,06,31,,,,,,,,3.0,1.6,2.5*31
$GPGSV,3,1,10,05,73,183,52,30,69,248,50,02,47,109,45,04,34,058,37*73
$GPGSV,3,2,10,06,28,233,39,31,27,312,41,01,24,295,37,14,13,259,37*7F
$GPGSV,3,3,10,20,07,352,23,09,06,173,34*75
$GPRMC,154122.985,A,6236.2557,N,02944.8691,E,31.394977,311.32,270807,,A*73
$GPGGA,154123.985,6236.2617,N,02944.8550,E,1,05,1.6,93.2,M,,,,0000*31
$GPGSA,A,3,05,30,02,06,31,,,,,,,,3.0,1.6,2.5*31
$GPGSV,3,1,10,05,73,183,53,30,69,248,49,02,47,109,47,04,34,058,37*78
$GPGSV,3,2,10,06,28,233,42,31,27,312,43,01,24,295,37,14,13,259,37*71
$GPGSV,3,3,10,20,07,352,21,09,06,173,34*77
$GPRMC,154123.985,A,6236.2617,N,02944.8550,E,32.758639,313.78,270807,,A*75
$GPGGA,154124.986,6236.2681,N,02944.8411,E,1,07,1.4,93.6,M,,,,0000*3A
$GPGSA,A,3,05,30,02,06,31,01,14,,,,,,2.6,1.4,2.1*34
$GPGSV,3,1,10,05,73,183,53,30,69,248,50,02,47,109,45,04,34,058,37*72
$GPGSV,3,2,10,06,28,233,45,31,27,312,42,01,24,295,37,14,13,259,35*75
$GPGSV,3,3,10,20,07,352,21,09,06,173,34*77
$GPRMC,154124.986,A,6236.2681,N,02944.8411,E,32.524273,315.20,270807,,A*72
$GPGGA,154125.986,6236.2746,N,02944.8275,E,1,08,1.2,94.1,M,,,,0000*3C
$GPGSA,A,3,05,30,02,04,06,31,01,14,,,,,2.2,1.2,1.9*39
$GPGSV,3,1,10,05,73,183,49,30,69,248,48,02,47,109,43,04,34,058,43*75
$GPGSV,3,2,10,06,28,233,40,31,27,312,43,01,24,295,39,14,13,259,33*79
$GPGSV,3,3,10,20,07,352,21,09,06,173,30*73
$GPRMC,154125.986,A,6236.2746,N,02944.8275,E,32.904076,317.37,270807,,A*70
$GPGGA,154126.986,6236.2817,N,02944.8144,E,1,07,1.2,94.7,M,,,,0000*3C
$GPGSA,A,3,05,30,02,04,06,31,01,,,,,,2.6,1.2,2.3*31
$GPGSV,3,1,10,05,73,183,50,30,69,248,50,02,47,109,46,04,34,058,36*73
$GPGSV,3,2,10,06,28,233,37,31,27,312,43,01,24,295,40,14,13,259,33*77
$GPGSV,3,3,10,20,07,352,21,09,06,173,30*73
$GPRMC,154126.986,A,6236.2817,N,02944.8144,E,34.115498,321.62,270807,,A*76
$GPGGA,154127.986,6236.2893,N,02944.8016,E,1,07,1.2,94.9,M,,,,0000*39
$GPGSA,A,3,05,30,02,04,06,31,01,,,,,,2.6,1.2,2.3*31
$GPGSV,3,1,10,05,73,183,49,30,69,248,49,02,47,109,43,04,34,058,36*76
$GPGSV,3,2,10,06,28,233,29,31,27,312,38,01,24,295,42,14,13,259,33*76
$GPGSV,3,3,10,20,07,352,21,09,06,173,21*73
$GPRMC,154127.986,A,6236.2893,N,02944.8016,E,34.905837,322.49,270807,,A*77
$GPGGA,154128.986,6236.2973,N,02944.7890,E,1,06,2.8,95.2,M,,,,0000*32
$GPGSA,A,3,05,30,02,04,31,01,,,,,,,5.2,2.8,4.3*3B
$GPGSV,3,1,10,05,73,183,49,30,69,248,51,02,47,109,41,04,34,058,36*7D
$GPGSV,3,2,10,06,28,233,29,31,27,312,37,01,24,295,42,14,13,259,33*79
$GPGSV,3,3,10,20,07,352,21,09,06,173,29*7B
$GPRMC,154128.986,A,6236.2973,N,02944.7890,E,36.205887,325.69,270807,,A*79
$GPGGA,154129.986,6236.3059,N,02944.7771,E,1,07,1.2,95.5,M,,,,0000*3C
$GPGSA,A,3,05,30,02,04,06,31,01,,,,,,2.6,1.2,2.3*31
$GPGSV,3,1,10,05,73,183,52,30,69,248,49,02,47,109,41,04,34,058,40*7F
$GPGSV,3,2,10,06,28,233,36,31,27,312,39,01,24,295,44,14,13,259,33*7F
$GPGSV,3,3,10,20,07,352,21,09,06,173,36*75
